zip_code,city,state,latitude,longitude
12345,Springfield,IL,39.7817,-89.6501
23456,Riverside,CA,33.9533,-117.3961
34567,Lakewood,OH,41.4819,-81.7984
45678,Maplewood,MN,44.9530,-93.0275
56789,Oakland,CA,37.8044,-122.2711
